{
  "line": "Yamanote Line (山手線)",
  "totalStations": 29,
  "circleTimeMinutes": 60,
  "stations": [
    {"id": 1, "name": "東京", "nameEn": "Tokyo", "nameJa": "東京", "order": 1, "latitude": 35.6762, "longitude": 139.7674, "platformType": "terminal", "connections": ["Marunouchi Line", "Chiyoda Line", "Hanzomon Line"]},
    {"id": 2, "name": "有樂町", "nameEn": "Yurakucho", "nameJa": "有楽町", "order": 2, "latitude": 35.6756, "longitude": 139.7635, "platformType": "standard", "connections": ["Chiyoda Line", "Hibiya Line"]},
    {"id": 3, "name": "新橋", "nameEn": "Shimbashi", "nameJa": "新橋", "order": 3, "latitude": 35.6654, "longitude": 139.7587, "platformType": "standard", "connections": ["Ginza Line", "Asakusa Line"]},
    {"id": 4, "name": "濱松町", "nameEn": "Hamamatsucho", "nameJa": "浜松町", "order": 4, "latitude": 35.6552, "longitude": 139.7572, "platformType": "standard", "connections": ["Oedo Line"]},
    {"id": 5, "name": "田町", "nameEn": "Tamachi", "nameJa": "田町", "order": 5, "latitude": 35.6454, "longitude": 139.7476, "platformType": "standard", "connections": ["Oedo Line"]},
    {"id": 6, "name": "品川", "nameEn": "Shinagawa", "nameJa": "品川", "order": 6, "latitude": 35.6283, "longitude": 139.7397, "platformType": "major", "connections": ["Keihin-Tohoku Line", "Yokosuka Line"]},
    {"id": 7, "name": "大崎", "nameEn": "Osaki", "nameJa": "大崎", "order": 7, "latitude": 35.6197, "longitude": 139.7280, "platformType": "major", "connections": ["Saikyo Line", "Rinkai Line"]},
    {"id": 8, "name": "五反田", "nameEn": "Gotanda", "nameJa": "五反田", "order": 8, "latitude": 35.6249, "longitude": 139.7220, "platformType": "standard", "connections": ["Asakusa Line"]},
    {"id": 9, "name": "目黑", "nameEn": "Meguro", "nameJa": "目黒", "order": 9, "latitude": 35.6334, "longitude": 139.7159, "platformType": "standard", "connections": ["Meguro Line", "Namboku Line"]},
    {"id": 10, "name": "惠比壽", "nameEn": "Ebisu", "nameJa": "恵比寿", "order": 10, "latitude": 35.6454, "longitude": 139.7108, "platformType": "major", "connections": ["Hibiya Line"]},
    {"id": 11, "name": "澀谷", "nameEn": "Shibuya", "nameJa": "渋谷", "order": 11, "latitude": 35.6595, "longitude": 139.7004, "platformType": "major", "connections": ["Ginza Line", "Hanzomon Line", "Fukutoshin Line"]},
    {"id": 12, "name": "原宿", "nameEn": "Harajuku", "nameJa": "原宿", "order": 12, "latitude": 35.6714, "longitude": 139.7027, "platformType": "major", "connections": []},
    {"id": 13, "name": "新宿", "nameEn": "Shinjuku", "nameJa": "新宿", "order": 13, "latitude": 35.6895, "longitude": 139.7006, "platformType": "major", "connections": ["Marunouchi Line", "Fukutoshin Line", "Shinjuku Line"]},
    {"id": 14, "name": "新大久保", "nameEn": "Shin-Okubo", "nameJa": "新大久保", "order": 14, "latitude": 35.7008, "longitude": 139.7036, "platformType": "standard", "connections": []},
    {"id": 15, "name": "高田馬場", "nameEn": "Takadanobaba", "nameJa": "高田馬場", "order": 15, "latitude": 35.7125, "longitude": 139.7020, "platformType": "major", "connections": ["Toden Tram", "Fukutoshin Line"]},
    {"id": 16, "name": "目白", "nameEn": "Mejiro", "nameJa": "目白", "order": 16, "latitude": 35.7243, "longitude": 139.6969, "platformType": "standard", "connections": ["Fukutoshin Line"]},
    {"id": 17, "name": "池袋", "nameEn": "Ikebukuro", "nameJa": "池袋", "order": 17, "latitude": 35.7307, "longitude": 139.7101, "platformType": "major", "connections": ["Marunouchi Line", "Fukutoshin Line", "Seibu Line"]},
    {"id": 18, "name": "雜司谷", "nameEn": "Zoshigaya", "nameJa": "雑司ヶ谷", "order": 18, "latitude": 35.7245, "longitude": 139.7231, "platformType": "standard", "connections": []},
    {"id": 19, "name": "鶯谷", "nameEn": "Uguisudani", "nameJa": "鶯谷", "order": 19, "latitude": 35.7169, "longitude": 139.7524, "platformType": "standard", "connections": []},
    {"id": 20, "name": "上野", "nameEn": "Ueno", "nameJa": "上野", "order": 20, "latitude": 35.7146, "longitude": 139.7749, "platformType": "major", "connections": ["Ginza Line", "Hibiya Line"]},
    {"id": 21, "name": "御徒町", "nameEn": "Okachimachi", "nameJa": "御徒町", "order": 21, "latitude": 35.7076, "longitude": 139.7746, "platformType": "standard", "connections": ["Oedo Line"]},
    {"id": 22, "name": "秋葉原", "nameEn": "Akihabara", "nameJa": "秋葉原", "order": 22, "latitude": 35.6981, "longitude": 139.7711, "platformType": "major", "connections": ["Chiyoda Line", "Sobu Line"]},
    {"id": 23, "name": "神田", "nameEn": "Kanda", "nameJa": "神田", "order": 23, "latitude": 35.6910, "longitude": 139.7712, "platformType": "standard", "connections": ["Asakusa Line"]},
    {"id": 24, "name": "東京", "nameEn": "Tokyo", "nameJa": "東京", "order": 24, "latitude": 35.6762, "longitude": 139.7674, "platformType": "terminal", "connections": ["Marunouchi Line", "Chiyoda Line"]},
    {"id": 25, "name": "日本橋", "nameEn": "Nihombashi", "nameJa": "日本橋", "order": 25, "latitude": 35.6683, "longitude": 139.7739, "platformType": "standard", "connections": ["Ginza Line", "Asakusa Line"]},
    {"id": 26, "name": "京橋", "nameEn": "Kyobashi", "nameJa": "京橋", "order": 26, "latitude": 35.6713, "longitude": 139.7718, "platformType": "standard", "connections": ["Ginza Line"]},
    {"id": 27, "name": "銀座", "nameEn": "Ginza", "nameJa": "銀座", "order": 27, "latitude": 35.6728, "longitude": 139.7690, "platformType": "major", "connections": ["Ginza Line", "Hibiya Line", "Marunouchi Line"]},
    {"id": 28, "name": "有樂町", "nameEn": "Yurakucho", "nameJa": "有楽町", "order": 28, "latitude": 35.6756, "longitude": 139.7635, "platformType": "standard", "connections": ["Chiyoda Line", "Hibiya Line"]},
    {"id": 29, "name": "東京", "nameEn": "Tokyo", "nameJa": "東京", "order": 29, "latitude": 35.6762, "longitude": 139.7674, "platformType": "terminal", "connections": ["Marunouchi Line", "Chiyoda Line"]}
  ]
}
